log_time_ns,_full_text,_type,header._full_text,header._type,header.frame_id,header.stamp._full_text,header.stamp._type,header.stamp.nanosec,header.stamp.sec,steering,throttle
1697563552474566347,"# lar_msgs/CarControlStamped
std_msgs/Header header
float32 steering
float32 throttle",lar_msgs/CarControlStamped,"# std_msgs/Header
builtin_interfaces/Time stamp
string frame_id",std_msgs/Header,,"# builtin_interfaces/Time
int32 sec
uint32 nanosec",builtin_interfaces/Time,474141075,1697563552,0.01442649681121111,0.30000001192092896
1697563552475317230,"# lar_msgs/CarControlStamped
std_msgs/Header header
float32 steering
float32 throttle",lar_msgs/CarControlStamped,"# std_msgs/Header
builtin_interfaces/Time stamp
string frame_id",std_msgs/Header,,"# builtin_interfaces/Time
int32 sec
uint32 nanosec",builtin_interfaces/Time,474992998,1697563552,0.01442649681121111,0.30000001192092896
1697563552481938826,"# lar_msgs/CarControlStamped
std_msgs/Header header
float32 steering
float32 throttle",lar_msgs/CarControlStamped,"# std_msgs/Header
builtin_interfaces/Time stamp
string frame_id",std_msgs/Header,,"# builtin_interfaces/Time
int32 sec
uint32 nanosec",builtin_interfaces/Time,481722591,1697563552,0.01442649681121111,0.30000001192092896
1697563552488478479,"# lar_msgs/CarControlStamped
std_msgs/Header header
float32 steering
float32 throttle",lar_msgs/CarControlStamped,"# std_msgs/Header
builtin_interfaces/Time stamp
string frame_id",std_msgs/Header,,"# builtin_interfaces/Time
int32 sec
uint32 nanosec",builtin_interfaces/Time,488070708,1697563552,0.01442649681121111,0.30000001192092896
1697563552495430541,"# lar_msgs/CarControlStamped
std_msgs/Header header
float32 steering
float32 throttle",lar_msgs/CarControlStamped,"# std_msgs/Header
builtin_interfaces/Time stamp
string frame_id",std_msgs/Header,,"# builtin_interfaces/Time
int32 sec
uint32 nanosec",builtin_interfaces/Time,494750839,1697563552,0.010670945048332214,0.30000001192092896
1697563552500816523,"# lar_msgs/CarControlStamped
std_msgs/Header header
float32 steering
float32 throttle",lar_msgs/CarControlStamped,"# std_msgs/Header
builtin_interfaces/Time stamp
string frame_id",std_msgs/Header,,"# builtin_interfaces/Time
int32 sec
uint32 nanosec",builtin_interfaces/Time,500333454,1697563552,-0.0053339325822889805,0.30000001192092896
1697563552505850249,"# lar_msgs/CarControlStamped
std_msgs/Header header
float32 steering
float32 throttle",lar_msgs/CarControlStamped,"# std_msgs/Header
builtin_interfaces/Time stamp
string frame_id",std_msgs/Header,,"# builtin_interfaces/Time
int32 sec
uint32 nanosec",builtin_interfaces/Time,505482133,1697563552,-0.008694291114807129,0.30000001192092896
1697563552510898636,"# lar_msgs/CarControlStamped
std_msgs/Header header
float32 steering
float32 throttle",lar_msgs/CarControlStamped,"# std_msgs/Header
builtin_interfaces/Time stamp
string frame_id",std_msgs/Header,,"# builtin_interfaces/Time
int32 sec
uint32 nanosec",builtin_interfaces/Time,510513242,1697563552,-0.010434110648930073,0.30000001192092896
1697563552515963371,"# lar_msgs/CarControlStamped
std_msgs/Header header
float32 steering
float32 throttle",lar_msgs/CarControlStamped,"# std_msgs/Header
builtin_interfaces/Time stamp
string frame_id",std_msgs/Header,,"# builtin_interfaces/Time
int32 sec
uint32 nanosec",builtin_interfaces/Time,515501700,1697563552,-0.011732487007975578,0.30000001192092896
1697563552520689882,"# lar_msgs/CarControlStamped
std_msgs/Header header
float32 steering
float32 throttle",lar_msgs/CarControlStamped,"# std_msgs/Header
builtin_interfaces/Time stamp
string frame_id",std_msgs/Header,,"# builtin_interfaces/Time
int32 sec
uint32 nanosec",builtin_interfaces/Time,520346581,1697563552,-0.012320605106651783,0.30000001192092896
1697563552525897381,"# lar_msgs/CarControlStamped
std_msgs/Header header
float32 steering
float32 throttle",lar_msgs/CarControlStamped,"# std_msgs/Header
builtin_interfaces/Time stamp
string frame_id",std_msgs/Header,,"# builtin_interfaces/Time
int32 sec
uint32 nanosec",builtin_interfaces/Time,525572053,1697563552,-0.01226886361837387,0.30000001192092896
1697563552531026883,"# lar_msgs/CarControlStamped
std_msgs/Header header
float32 steering
float32 throttle",lar_msgs/CarControlStamped,"# std_msgs/Header
builtin_interfaces/Time stamp
string frame_id",std_msgs/Header,,"# builtin_interfaces/Time
int32 sec
uint32 nanosec",builtin_interfaces/Time,530600102,1697563552,-0.011508177034556866,0.30000001192092896
1697563552535918017,"# lar_msgs/CarControlStamped
std_msgs/Header header
float32 steering
float32 throttle",lar_msgs/CarControlStamped,"# std_msgs/Header
builtin_interfaces/Time stamp
string frame_id",std_msgs/Header,,"# builtin_interfaces/Time
int32 sec
uint32 nanosec",builtin_interfaces/Time,535581776,1697563552,-0.011285235174000263,0.30000001192092896
1697563552540810260,"# lar_msgs/CarControlStamped
std_msgs/Header header
float32 steering
float32 throttle",lar_msgs/CarControlStamped,"# std_msgs/Header
builtin_interfaces/Time stamp
string frame_id",std_msgs/Header,,"# builtin_interfaces/Time
int32 sec
uint32 nanosec",builtin_interfaces/Time,540220929,1697563552,-0.01103163417428732,0.30000001192092896
1697563552546434748,"# lar_msgs/CarControlStamped
std_msgs/Header header
float32 steering
float32 throttle",lar_msgs/CarControlStamped,"# std_msgs/Header
builtin_interfaces/Time stamp
string frame_id",std_msgs/Header,,"# builtin_interfaces/Time
int32 sec
uint32 nanosec",builtin_interfaces/Time,545765901,1697563552,-0.010754008777439594,0.30000001192092896
1697563552550665101,"# lar_msgs/CarControlStamped
std_msgs/Header header
float32 steering
float32 throttle",lar_msgs/CarControlStamped,"# std_msgs/Header
builtin_interfaces/Time stamp
string frame_id",std_msgs/Header,,"# builtin_interfaces/Time
int32 sec
uint32 nanosec",builtin_interfaces/Time,550268836,1697563552,-0.010454786010086536,0.30000001192092896
1697563552555679060,"# lar_msgs/CarControlStamped
std_msgs/Header header
float32 steering
float32 throttle",lar_msgs/CarControlStamped,"# std_msgs/Header
builtin_interfaces/Time stamp
string frame_id",std_msgs/Header,,"# builtin_interfaces/Time
int32 sec
uint32 nanosec",builtin_interfaces/Time,555374810,1697563552,-0.010127550922334194,0.30000001192092896
1697563552560542756,"# lar_msgs/CarControlStamped
std_msgs/Header header
float32 steering
float32 throttle",lar_msgs/CarControlStamped,"# std_msgs/Header
builtin_interfaces/Time stamp
string frame_id",std_msgs/Header,,"# builtin_interfaces/Time
int32 sec
uint32 nanosec",builtin_interfaces/Time,560222627,1697563552,-0.009769495576620102,0.30000001192092896
1697563552566069875,"# lar_msgs/CarControlStamped
std_msgs/Header header
float32 steering
float32 throttle",lar_msgs/CarControlStamped,"# std_msgs/Header
builtin_interfaces/Time stamp
string frame_id",std_msgs/Header,,"# builtin_interfaces/Time
int32 sec
uint32 nanosec",builtin_interfaces/Time,565521831,1697563552,-0.009378304705023766,0.30000001192092896
1697563552570620962,"# lar_msgs/CarControlStamped
std_msgs/Header header
float32 steering
float32 throttle",lar_msgs/CarControlStamped,"# std_msgs/Header
builtin_interfaces/Time stamp
string frame_id",std_msgs/Header,,"# builtin_interfaces/Time
int32 sec
uint32 nanosec",builtin_interfaces/Time,570291500,1697563552,-0.008967898786067963,0.30000001192092896
1697563552576419691,"# lar_msgs/CarControlStamped
std_msgs/Header header
float32 steering
float32 throttle",lar_msgs/CarControlStamped,"# std_msgs/Header
builtin_interfaces/Time stamp
string frame_id",std_msgs/Header,,"# builtin_interfaces/Time
int32 sec
uint32 nanosec",builtin_interfaces/Time,575781647,1697563552,-0.008546754717826843,0.30000001192092896
1697563552580933952,"# lar_msgs/CarControlStamped
std_msgs/Header header
float32 steering
float32 throttle",lar_msgs/CarControlStamped,"# std_msgs/Header
builtin_interfaces/Time stamp
string frame_id",std_msgs/Header,,"# builtin_interfaces/Time
int32 sec
uint32 nanosec",builtin_interfaces/Time,580490890,1697563552,-0.008099173195660114,0.30000001192092896
1697563552586052025,"# lar_msgs/CarControlStamped
std_msgs/Header header
float32 steering
float32 throttle",lar_msgs/CarControlStamped,"# std_msgs/Header
builtin_interfaces/Time stamp
string frame_id",std_msgs/Header,,"# builtin_interfaces/Time
int32 sec
uint32 nanosec",builtin_interfaces/Time,585636054,1697563552,-0.0076178996823728085,0.30000001192092896
1697563552590806887,"# lar_msgs/CarControlStamped
std_msgs/Header header
float32 steering
float32 throttle",lar_msgs/CarControlStamped,"# std_msgs/Header
builtin_interfaces/Time stamp
string frame_id",std_msgs/Header,,"# builtin_interfaces/Time
int32 sec
uint32 nanosec",builtin_interfaces/Time,590240155,1697563552,-0.007097824010998011,0.30000001192092896
1697563552596123706,"# lar_msgs/CarControlStamped
std_msgs/Header header
float32 steering
float32 throttle",lar_msgs/CarControlStamped,"# std_msgs/Header
builtin_interfaces/Time stamp
string frame_id",std_msgs/Header,,"# builtin_interfaces/Time
int32 sec
uint32 nanosec",builtin_interfaces/Time,595784246,1697563552,-0.006540870759636164,0.30000001192092896
1697563552600881076,"# lar_msgs/CarControlStamped
std_msgs/Header header
float32 steering
float32 throttle",lar_msgs/CarControlStamped,"# std_msgs/Header
builtin_interfaces/Time stamp
string frame_id",std_msgs/Header,,"# builtin_interfaces/Time
int32 sec
uint32 nanosec",builtin_interfaces/Time,600514677,1697563552,-0.0060053132474422455,0.30000001192092896
1697563552605736009,"# lar_msgs/CarControlStamped
std_msgs/Header header
float32 steering
float32 throttle",lar_msgs/CarControlStamped,"# std_msgs/Header
builtin_interfaces/Time stamp
string frame_id",std_msgs/Header,,"# builtin_interfaces/Time
int32 sec
uint32 nanosec",builtin_interfaces/Time,605340840,1697563552,-0.005457550752907991,0.30000001192092896
1697563552611017309,"# lar_msgs/CarControlStamped
std_msgs/Header header
float32 steering
float32 throttle",lar_msgs/CarControlStamped,"# std_msgs/Header
builtin_interfaces/Time stamp
string frame_id",std_msgs/Header,,"# builtin_interfaces/Time
int32 sec
uint32 nanosec",builtin_interfaces/Time,610555252,1697563552,-0.005019026342779398,0.30000001192092896
1697563552615727833,"# lar_msgs/CarControlStamped
std_msgs/Header header
float32 steering
float32 throttle",lar_msgs/CarControlStamped,"# std_msgs/Header
builtin_interfaces/Time stamp
string frame_id",std_msgs/Header,,"# builtin_interfaces/Time
int32 sec
uint32 nanosec",builtin_interfaces/Time,615397665,1697563552,-0.004486500285565853,0.30000001192092896
1697563552620625111,"# lar_msgs/CarControlStamped
std_msgs/Header header
float32 steering
float32 throttle",lar_msgs/CarControlStamped,"# std_msgs/Header
builtin_interfaces/Time stamp
string frame_id",std_msgs/Header,,"# builtin_interfaces/Time
int32 sec
uint32 nanosec",builtin_interfaces/Time,620308522,1697563552,-0.003943831194192171,0.30000001192092896
1697563552626832279,"# lar_msgs/CarControlStamped
std_msgs/Header header
float32 steering
float32 throttle",lar_msgs/CarControlStamped,"# std_msgs/Header
builtin_interfaces/Time stamp
string frame_id",std_msgs/Header,,"# builtin_interfaces/Time
int32 sec
uint32 nanosec",builtin_interfaces/Time,625821794,1697563552,-0.0034092627465724945,0.30000001192092896
1697563552630942464,"# lar_msgs/CarControlStamped
std_msgs/Header header
float32 steering
float32 throttle",lar_msgs/CarControlStamped,"# std_msgs/Header
builtin_interfaces/Time stamp
string frame_id",std_msgs/Header,,"# builtin_interfaces/Time
int32 sec
uint32 nanosec",builtin_interfaces/Time,630273899,1697563552,-0.002857580780982971,0.30000001192092896
1697563552635689285,"# lar_msgs/CarControlStamped
std_msgs/Header header
float32 steering
float32 throttle",lar_msgs/CarControlStamped,"# std_msgs/Header
builtin_interfaces/Time stamp
string frame_id",std_msgs/Header,,"# builtin_interfaces/Time
int32 sec
uint32 nanosec",builtin_interfaces/Time,635372336,1697563552,-0.0022748829796910286,0.30000001192092896
1697563552640977428,"# lar_msgs/CarControlStamped
std_msgs/Header header
float32 steering
float32 throttle",lar_msgs/CarControlStamped,"# std_msgs/Header
builtin_interfaces/Time stamp
string frame_id",std_msgs/Header,,"# builtin_interfaces/Time
int32 sec
uint32 nanosec",builtin_interfaces/Time,640620549,1697563552,-0.001651549944654107,0.30000001192092896
1697563552646040643,"# lar_msgs/CarControlStamped
std_msgs/Header header
float32 steering
float32 throttle",lar_msgs/CarControlStamped,"# std_msgs/Header
builtin_interfaces/Time stamp
string frame_id",std_msgs/Header,,"# builtin_interfaces/Time
int32 sec
uint32 nanosec",builtin_interfaces/Time,645724335,1697563552,-0.0010159233352169394,0.30000001192092896
1697563552650781743,"# lar_msgs/CarControlStamped
std_msgs/Header header
float32 steering
float32 throttle",lar_msgs/CarControlStamped,"# std_msgs/Header
builtin_interfaces/Time stamp
string frame_id",std_msgs/Header,,"# builtin_interfaces/Time
int32 sec
uint32 nanosec",builtin_interfaces/Time,650370885,1697563552,-0.0003174344601575285,0.30000001192092896
1697563552655828178,"# lar_msgs/CarControlStamped
std_msgs/Header header
float32 steering
float32 throttle",lar_msgs/CarControlStamped,"# std_msgs/Header
builtin_interfaces/Time stamp
string frame_id",std_msgs/Header,,"# builtin_interfaces/Time
int32 sec
uint32 nanosec",builtin_interfaces/Time,655418439,1697563552,0.0001697470579529181,0.30000001192092896
1697563552660945240,"# lar_msgs/CarControlStamped
std_msgs/Header header
float32 steering
float32 throttle",lar_msgs/CarControlStamped,"# std_msgs/Header
builtin_interfaces/Time stamp
string frame_id",std_msgs/Header,,"# builtin_interfaces/Time
int32 sec
uint32 nanosec",builtin_interfaces/Time,660443740,1697563552,-3.0770439479965717e-05,0.30000001192092896
1697563552666029898,"# lar_msgs/CarControlStamped
std_msgs/Header header
float32 steering
float32 throttle",lar_msgs/CarControlStamped,"# std_msgs/Header
builtin_interfaces/Time stamp
string frame_id",std_msgs/Header,,"# builtin_interfaces/Time
int32 sec
uint32 nanosec",builtin_interfaces/Time,665635283,1697563552,0.0005266337539069355,0.30000001192092896
1697563552670664763,"# lar_msgs/CarControlStamped
std_msgs/Header header
float32 steering
float32 throttle",lar_msgs/CarControlStamped,"# std_msgs/Header
builtin_interfaces/Time stamp
string frame_id",std_msgs/Header,,"# builtin_interfaces/Time
int32 sec
uint32 nanosec",builtin_interfaces/Time,670305354,1697563552,0.001097444910556078,0.30000001192092896
1697563552675859465,"# lar_msgs/CarControlStamped
std_msgs/Header header
float32 steering
float32 throttle",lar_msgs/CarControlStamped,"# std_msgs/Header
builtin_interfaces/Time stamp
string frame_id",std_msgs/Header,,"# builtin_interfaces/Time
int32 sec
uint32 nanosec",builtin_interfaces/Time,675423155,1697563552,0.001665127114392817,0.30000001192092896
1697563552680842697,"# lar_msgs/CarControlStamped
std_msgs/Header header
float32 steering
float32 throttle",lar_msgs/CarControlStamped,"# std_msgs/Header
builtin_interfaces/Time stamp
string frame_id",std_msgs/Header,,"# builtin_interfaces/Time
int32 sec
uint32 nanosec",builtin_interfaces/Time,680342390,1697563552,0.00225278758443892,0.30000001192092896
1697563552685692804,"# lar_msgs/CarControlStamped
std_msgs/Header header
float32 steering
float32 throttle",lar_msgs/CarControlStamped,"# std_msgs/Header
builtin_interfaces/Time stamp
string frame_id",std_msgs/Header,,"# builtin_interfaces/Time
int32 sec
uint32 nanosec",builtin_interfaces/Time,685368487,1697563552,0.002875532954931259,0.30000001192092896
1697563552690918185,"# lar_msgs/CarControlStamped
std_msgs/Header header
float32 steering
float32 throttle",lar_msgs/CarControlStamped,"# std_msgs/Header
builtin_interfaces/Time stamp
string frame_id",std_msgs/Header,,"# builtin_interfaces/Time
int32 sec
uint32 nanosec",builtin_interfaces/Time,690406608,1697563552,0.0037899489980190992,0.30000001192092896
1697563552696029673,"# lar_msgs/CarControlStamped
std_msgs/Header header
float32 steering
float32 throttle",lar_msgs/CarControlStamped,"# std_msgs/Header
builtin_interfaces/Time stamp
string frame_id",std_msgs/Header,,"# builtin_interfaces/Time
int32 sec
uint32 nanosec",builtin_interfaces/Time,695456874,1697563552,0.004226255230605602,0.30000001192092896
1697563552700893977,"# lar_msgs/CarControlStamped
std_msgs/Header header
float32 steering
float32 throttle",lar_msgs/CarControlStamped,"# std_msgs/Header
builtin_interfaces/Time stamp
string frame_id",std_msgs/Header,,"# builtin_interfaces/Time
int32 sec
uint32 nanosec",builtin_interfaces/Time,700309185,1697563552,0.0033898286055773497,0.30000001192092896
1697563552705826814,"# lar_msgs/CarControlStamped
std_msgs/Header header
float32 steering
float32 throttle",lar_msgs/CarControlStamped,"# std_msgs/Header
builtin_interfaces/Time stamp
string frame_id",std_msgs/Header,,"# builtin_interfaces/Time
int32 sec
uint32 nanosec",builtin_interfaces/Time,705396116,1697563552,0.0038733656983822584,0.30000001192092896
1697563552711009674,"# lar_msgs/CarControlStamped
std_msgs/Header header
float32 steering
float32 throttle",lar_msgs/CarControlStamped,"# std_msgs/Header
builtin_interfaces/Time stamp
string frame_id",std_msgs/Header,,"# builtin_interfaces/Time
int32 sec
uint32 nanosec",builtin_interfaces/Time,710593025,1697563552,0.004373384173959494,0.30000001192092896
1697563552715664842,"# lar_msgs/CarControlStamped
std_msgs/Header header
float32 steering
float32 throttle",lar_msgs/CarControlStamped,"# std_msgs/Header
builtin_interfaces/Time stamp
string frame_id",std_msgs/Header,,"# builtin_interfaces/Time
int32 sec
uint32 nanosec",builtin_interfaces/Time,715321605,1697563552,0.004902767017483711,0.30000001192092896
1697563552720695647,"# lar_msgs/CarControlStamped
std_msgs/Header header
float32 steering
float32 throttle",lar_msgs/CarControlStamped,"# std_msgs/Header
builtin_interfaces/Time stamp
string frame_id",std_msgs/Header,,"# builtin_interfaces/Time
int32 sec
uint32 nanosec",builtin_interfaces/Time,720354701,1697563552,0.00545694911852479,0.30000001192092896
1697563552726071122,"# lar_msgs/CarControlStamped
std_msgs/Header header
float32 steering
float32 throttle",lar_msgs/CarControlStamped,"# std_msgs/Header
builtin_interfaces/Time stamp
string frame_id",std_msgs/Header,,"# builtin_interfaces/Time
int32 sec
uint32 nanosec",builtin_interfaces/Time,725570018,1697563552,0.006030794233083725,0.30000001192092896
1697563552730852837,"# lar_msgs/CarControlStamped
std_msgs/Header header
float32 steering
float32 throttle",lar_msgs/CarControlStamped,"# std_msgs/Header
builtin_interfaces/Time stamp
string frame_id",std_msgs/Header,,"# builtin_interfaces/Time
int32 sec
uint32 nanosec",builtin_interfaces/Time,730502034,1697563552,0.0068182251416146755,0.30000001192092896
1697563552736032864,"# lar_msgs/CarControlStamped
std_msgs/Header header
float32 steering
float32 throttle",lar_msgs/CarControlStamped,"# std_msgs/Header
builtin_interfaces/Time stamp
string frame_id",std_msgs/Header,,"# builtin_interfaces/Time
int32 sec
uint32 nanosec",builtin_interfaces/Time,735641034,1697563552,0.007113870233297348,0.30000001192092896
1697563552740530584,"# lar_msgs/CarControlStamped
std_msgs/Header header
float32 steering
float32 throttle",lar_msgs/CarControlStamped,"# std_msgs/Header
builtin_interfaces/Time stamp
string frame_id",std_msgs/Header,,"# builtin_interfaces/Time
int32 sec
uint32 nanosec",builtin_interfaces/Time,740228571,1697563552,0.005724386777728796,0.30000001192092896
1697563552745861351,"# lar_msgs/CarControlStamped
std_msgs/Header header
float32 steering
float32 throttle",lar_msgs/CarControlStamped,"# std_msgs/Header
builtin_interfaces/Time stamp
string frame_id",std_msgs/Header,,"# builtin_interfaces/Time
int32 sec
uint32 nanosec",builtin_interfaces/Time,745521295,1697563552,0.006234495434910059,0.30000001192092896
1697563552750768648,"# lar_msgs/CarControlStamped
std_msgs/Header header
float32 steering
float32 throttle",lar_msgs/CarControlStamped,"# std_msgs/Header
builtin_interfaces/Time stamp
string frame_id",std_msgs/Header,,"# builtin_interfaces/Time
int32 sec
uint32 nanosec",builtin_interfaces/Time,750420506,1697563552,0.006621727719902992,0.30000001192092896
1697563552756195149,"# lar_msgs/CarControlStamped
std_msgs/Header header
float32 steering
float32 throttle",lar_msgs/CarControlStamped,"# std_msgs/Header
builtin_interfaces/Time stamp
string frame_id",std_msgs/Header,,"# builtin_interfaces/Time
int32 sec
uint32 nanosec",builtin_interfaces/Time,755595735,1697563552,0.007020863238722086,0.30000001192092896
1697563552760480520,"# lar_msgs/CarControlStamped
std_msgs/Header header
float32 steering
float32 throttle",lar_msgs/CarControlStamped,"# std_msgs/Header
builtin_interfaces/Time stamp
string frame_id",std_msgs/Header,,"# builtin_interfaces/Time
int32 sec
uint32 nanosec",builtin_interfaces/Time,760175121,1697563552,0.007610604166984558,0.30000001192092896
1697563552766226226,"# lar_msgs/CarControlStamped
std_msgs/Header header
float32 steering
float32 throttle",lar_msgs/CarControlStamped,"# std_msgs/Header
builtin_interfaces/Time stamp
string frame_id",std_msgs/Header,,"# builtin_interfaces/Time
int32 sec
uint32 nanosec",builtin_interfaces/Time,765557011,1697563552,0.008064634166657925,0.30000001192092896
1697563552770940875,"# lar_msgs/CarControlStamped
std_msgs/Header header
float32 steering
float32 throttle",lar_msgs/CarControlStamped,"# std_msgs/Header
builtin_interfaces/Time stamp
string frame_id",std_msgs/Header,,"# builtin_interfaces/Time
int32 sec
uint32 nanosec",builtin_interfaces/Time,770468877,1697563552,0.0063268947415053844,0.30000001192092896
1697563552775664868,"# lar_msgs/CarControlStamped
std_msgs/Header header
float32 steering
float32 throttle",lar_msgs/CarControlStamped,"# std_msgs/Header
builtin_interfaces/Time stamp
string frame_id",std_msgs/Header,,"# builtin_interfaces/Time
int32 sec
uint32 nanosec",builtin_interfaces/Time,775365878,1697563552,0.006744563113898039,0.30000001192092896
1697563552780856721,"# lar_msgs/CarControlStamped
std_msgs/Header header
float32 steering
float32 throttle",lar_msgs/CarControlStamped,"# std_msgs/Header
builtin_interfaces/Time stamp
string frame_id",std_msgs/Header,,"# builtin_interfaces/Time
int32 sec
uint32 nanosec",builtin_interfaces/Time,780296750,1697563552,0.007030470296740532,0.30000001192092896
1697563552786091967,"# lar_msgs/CarControlStamped
std_msgs/Header header
float32 steering
float32 throttle",lar_msgs/CarControlStamped,"# std_msgs/Header
builtin_interfaces/Time stamp
string frame_id",std_msgs/Header,,"# builtin_interfaces/Time
int32 sec
uint32 nanosec",builtin_interfaces/Time,785697607,1697563552,0.007317231502383947,0.30000001192092896
1697563552790773424,"# lar_msgs/CarControlStamped
std_msgs/Header header
float32 steering
float32 throttle",lar_msgs/CarControlStamped,"# std_msgs/Header
builtin_interfaces/Time stamp
string frame_id",std_msgs/Header,,"# builtin_interfaces/Time
int32 sec
uint32 nanosec",builtin_interfaces/Time,790385871,1697563552,0.0076116714626550674,0.30000001192092896
1697563552795679961,"# lar_msgs/CarControlStamped
std_msgs/Header header
float32 steering
float32 throttle",lar_msgs/CarControlStamped,"# std_msgs/Header
builtin_interfaces/Time stamp
string frame_id",std_msgs/Header,,"# builtin_interfaces/Time
int32 sec
uint32 nanosec",builtin_interfaces/Time,795309481,1697563552,0.008270925842225552,0.30000001192092896
1697563552801482781,"# lar_msgs/CarControlStamped
std_msgs/Header header
float32 steering
float32 throttle",lar_msgs/CarControlStamped,"# std_msgs/Header
builtin_interfaces/Time stamp
string frame_id",std_msgs/Header,,"# builtin_interfaces/Time
int32 sec
uint32 nanosec",builtin_interfaces/Time,800921900,1697563552,0.0064807613380253315,0.30000001192092896
1697563552806424953,"# lar_msgs/CarControlStamped
std_msgs/Header header
float32 steering
float32 throttle",lar_msgs/CarControlStamped,"# std_msgs/Header
builtin_interfaces/Time stamp
string frame_id",std_msgs/Header,,"# builtin_interfaces/Time
int32 sec
uint32 nanosec",builtin_interfaces/Time,805789146,1697563552,0.006713212933391333,0.30000001192092896
1697563552810638917,"# lar_msgs/CarControlStamped
std_msgs/Header header
float32 steering
float32 throttle",lar_msgs/CarControlStamped,"# std_msgs/Header
builtin_interfaces/Time stamp
string frame_id",std_msgs/Header,,"# builtin_interfaces/Time
int32 sec
uint32 nanosec",builtin_interfaces/Time,810272554,1697563552,0.00695876544341445,0.30000001192092896
1697563552816135804,"# lar_msgs/CarControlStamped
std_msgs/Header header
float32 steering
float32 throttle",lar_msgs/CarControlStamped,"# std_msgs/Header
builtin_interfaces/Time stamp
string frame_id",std_msgs/Header,,"# builtin_interfaces/Time
int32 sec
uint32 nanosec",builtin_interfaces/Time,815673716,1697563552,0.0073632304556667805,0.30000001192092896
1697563552821031390,"# lar_msgs/CarControlStamped
std_msgs/Header header
float32 steering
float32 throttle",lar_msgs/CarControlStamped,"# std_msgs/Header
builtin_interfaces/Time stamp
string frame_id",std_msgs/Header,,"# builtin_interfaces/Time
int32 sec
uint32 nanosec",builtin_interfaces/Time,820367946,1697563552,0.007652542553842068,0.30000001192092896
1697563552825828029,"# lar_msgs/CarControlStamped
std_msgs/Header header
float32 steering
float32 throttle",lar_msgs/CarControlStamped,"# std_msgs/Header
builtin_interfaces/Time stamp
string frame_id",std_msgs/Header,,"# builtin_interfaces/Time
int32 sec
uint32 nanosec",builtin_interfaces/Time,825429329,1697563552,0.007967368699610233,0.30000001192092896
1697563552830941895,"# lar_msgs/CarControlStamped
std_msgs/Header header
float32 steering
float32 throttle",lar_msgs/CarControlStamped,"# std_msgs/Header
builtin_interfaces/Time stamp
string frame_id",std_msgs/Header,,"# builtin_interfaces/Time
int32 sec
uint32 nanosec",builtin_interfaces/Time,830252121,1697563552,0.006450837943702936,0.30000001192092896
1697563552835969601,"# lar_msgs/CarControlStamped
std_msgs/Header header
float32 steering
float32 throttle",lar_msgs/CarControlStamped,"# std_msgs/Header
builtin_interfaces/Time stamp
string frame_id",std_msgs/Header,,"# builtin_interfaces/Time
int32 sec
uint32 nanosec",builtin_interfaces/Time,835654401,1697563552,0.006696928292512894,0.30000001192092896
1697563552840975834,"# lar_msgs/CarControlStamped
std_msgs/Header header
float32 steering
float32 throttle",lar_msgs/CarControlStamped,"# std_msgs/Header
builtin_interfaces/Time stamp
string frame_id",std_msgs/Header,,"# builtin_interfaces/Time
int32 sec
uint32 nanosec",builtin_interfaces/Time,840491439,1697563552,0.007091517094522715,0.30000001192092896
1697563552845821090,"# lar_msgs/CarControlStamped
std_msgs/Header header
float32 steering
float32 throttle",lar_msgs/CarControlStamped,"# std_msgs/Header
builtin_interfaces/Time stamp
string frame_id",std_msgs/Header,,"# builtin_interfaces/Time
int32 sec
uint32 nanosec",builtin_interfaces/Time,845527856,1697563552,0.007384777534753084,0.30000001192092896
1697563552850663951,"# lar_msgs/CarControlStamped
std_msgs/Header header
float32 steering
float32 throttle",lar_msgs/CarControlStamped,"# std_msgs/Header
builtin_interfaces/Time stamp
string frame_id",std_msgs/Header,,"# builtin_interfaces/Time
int32 sec
uint32 nanosec",builtin_interfaces/Time,850302066,1697563552,0.007859107106924057,0.30000001192092896
1697563552855719367,"# lar_msgs/CarControlStamped
std_msgs/Header header
float32 steering
float32 throttle",lar_msgs/CarControlStamped,"# std_msgs/Header
builtin_interfaces/Time stamp
string frame_id",std_msgs/Header,,"# builtin_interfaces/Time
int32 sec
uint32 nanosec",builtin_interfaces/Time,855398534,1697563552,0.008216805756092072,0.30000001192092896
1697563552860529140,"# lar_msgs/CarControlStamped
std_msgs/Header header
float32 steering
float32 throttle",lar_msgs/CarControlStamped,"# std_msgs/Header
builtin_interfaces/Time stamp
string frame_id",std_msgs/Header,,"# builtin_interfaces/Time
int32 sec
uint32 nanosec",builtin_interfaces/Time,860251788,1697563552,0.006483033299446106,0.30000001192092896
1697563552866316201,"# lar_msgs/CarControlStamped
std_msgs/Header header
float32 steering
float32 throttle",lar_msgs/CarControlStamped,"# std_msgs/Header
builtin_interfaces/Time stamp
string frame_id",std_msgs/Header,,"# builtin_interfaces/Time
int32 sec
uint32 nanosec",builtin_interfaces/Time,865697678,1697563552,0.006753952708095312,0.30000001192092896
1697563552870556637,"# lar_msgs/CarControlStamped
std_msgs/Header header
float32 steering
float32 throttle",lar_msgs/CarControlStamped,"# std_msgs/Header
builtin_interfaces/Time stamp
string frame_id",std_msgs/Header,,"# builtin_interfaces/Time
int32 sec
uint32 nanosec",builtin_interfaces/Time,870236274,1697563552,0.007177563384175301,0.30000001192092896
1697563552875762788,"# lar_msgs/CarControlStamped
std_msgs/Header header
float32 steering
float32 throttle",lar_msgs/CarControlStamped,"# std_msgs/Header
builtin_interfaces/Time stamp
string frame_id",std_msgs/Header,,"# builtin_interfaces/Time
int32 sec
uint32 nanosec",builtin_interfaces/Time,875398418,1697563552,0.007516229059547186,0.30000001192092896
1697563552880762779,"# lar_msgs/CarControlStamped
std_msgs/Header header
float32 steering
float32 throttle",lar_msgs/CarControlStamped,"# std_msgs/Header
builtin_interfaces/Time stamp
string frame_id",std_msgs/Header,,"# builtin_interfaces/Time
int32 sec
uint32 nanosec",builtin_interfaces/Time,880365620,1697563552,0.008037871681153774,0.30000001192092896
1697563552886107396,"# lar_msgs/CarControlStamped
std_msgs/Header header
float32 steering
float32 throttle",lar_msgs/CarControlStamped,"# std_msgs/Header
builtin_interfaces/Time stamp
string frame_id",std_msgs/Header,,"# builtin_interfaces/Time
int32 sec
uint32 nanosec",builtin_interfaces/Time,885613966,1697563552,0.008452268317341805,0.30000001192092896
1697563552890630460,"# lar_msgs/CarControlStamped
std_msgs/Header header
float32 steering
float32 throttle",lar_msgs/CarControlStamped,"# std_msgs/Header
builtin_interfaces/Time stamp
string frame_id",std_msgs/Header,,"# builtin_interfaces/Time
int32 sec
uint32 nanosec",builtin_interfaces/Time,890313827,1697563552,0.0069069573655724525,0.30000001192092896
1697563552895516364,"# lar_msgs/CarControlStamped
std_msgs/Header header
float32 steering
float32 throttle",lar_msgs/CarControlStamped,"# std_msgs/Header
builtin_interfaces/Time stamp
string frame_id",std_msgs/Header,,"# builtin_interfaces/Time
int32 sec
uint32 nanosec",builtin_interfaces/Time,895208853,1697563552,0.0073633394204080105,0.30000001192092896
1697563552901468722,"# lar_msgs/CarControlStamped
std_msgs/Header header
float32 steering
float32 throttle",lar_msgs/CarControlStamped,"# std_msgs/Header
builtin_interfaces/Time stamp
string frame_id",std_msgs/Header,,"# builtin_interfaces/Time
int32 sec
uint32 nanosec",builtin_interfaces/Time,900816224,1697563552,0.007718774490058422,0.30000001192092896
1697563552905807879,"# lar_msgs/CarControlStamped
std_msgs/Header header
float32 steering
float32 throttle",lar_msgs/CarControlStamped,"# std_msgs/Header
builtin_interfaces/Time stamp
string frame_id",std_msgs/Header,,"# builtin_interfaces/Time
int32 sec
uint32 nanosec",builtin_interfaces/Time,905448877,1697563552,0.008093100041151047,0.30000001192092896
1697563552910855383,"# lar_msgs/CarControlStamped
std_msgs/Header header
float32 steering
float32 throttle",lar_msgs/CarControlStamped,"# std_msgs/Header
builtin_interfaces/Time stamp
string frame_id",std_msgs/Header,,"# builtin_interfaces/Time
int32 sec
uint32 nanosec",builtin_interfaces/Time,910475677,1697563552,0.008976594544947147,0.30000001192092896
1697563552916237154,"# lar_msgs/CarControlStamped
std_msgs/Header header
float32 steering
float32 throttle",lar_msgs/CarControlStamped,"# std_msgs/Header
builtin_interfaces/Time stamp
string frame_id",std_msgs/Header,,"# builtin_interfaces/Time
int32 sec
uint32 nanosec",builtin_interfaces/Time,915595766,1697563552,0.0073608276434242725,0.30000001192092896
1697563552920700238,"# lar_msgs/CarControlStamped
std_msgs/Header header
float32 steering
float32 throttle",lar_msgs/CarControlStamped,"# std_msgs/Header
builtin_interfaces/Time stamp
string frame_id",std_msgs/Header,,"# builtin_interfaces/Time
int32 sec
uint32 nanosec",builtin_interfaces/Time,920270831,1697563552,0.007677692454308271,0.30000001192092896
1697563552926026490,"# lar_msgs/CarControlStamped
std_msgs/Header header
float32 steering
float32 throttle",lar_msgs/CarControlStamped,"# std_msgs/Header
builtin_interfaces/Time stamp
string frame_id",std_msgs/Header,,"# builtin_interfaces/Time
int32 sec
uint32 nanosec",builtin_interfaces/Time,925621028,1697563552,0.008108439855277538,0.30000001192092896
1697563552931195321,"# lar_msgs/CarControlStamped
std_msgs/Header header
float32 steering
float32 throttle",lar_msgs/CarControlStamped,"# std_msgs/Header
builtin_interfaces/Time stamp
string frame_id",std_msgs/Header,,"# builtin_interfaces/Time
int32 sec
uint32 nanosec",builtin_interfaces/Time,930879180,1697563552,0.00839976966381073,0.30000001192092896
1697563552935707721,"# lar_msgs/CarControlStamped
std_msgs/Header header
float32 steering
float32 throttle",lar_msgs/CarControlStamped,"# std_msgs/Header
builtin_interfaces/Time stamp
string frame_id",std_msgs/Header,,"# builtin_interfaces/Time
int32 sec
uint32 nanosec",builtin_interfaces/Time,935399157,1697563552,0.009017236530780792,0.30000001192092896
1697563552940522400,"# lar_msgs/CarControlStamped
std_msgs/Header header
float32 steering
float32 throttle",lar_msgs/CarControlStamped,"# std_msgs/Header
builtin_interfaces/Time stamp
string frame_id",std_msgs/Header,,"# builtin_interfaces/Time
int32 sec
uint32 nanosec",builtin_interfaces/Time,940190088,1697563552,0.007175122387707233,0.30000001192092896
1697563552945885182,"# lar_msgs/CarControlStamped
std_msgs/Header header
float32 steering
float32 throttle",lar_msgs/CarControlStamped,"# std_msgs/Header
builtin_interfaces/Time stamp
string frame_id",std_msgs/Header,,"# builtin_interfaces/Time
int32 sec
uint32 nanosec",builtin_interfaces/Time,945432857,1697563552,0.0075140055269002914,0.30000001192092896
1697563552951189427,"# lar_msgs/CarControlStamped
std_msgs/Header header
float32 steering
float32 throttle",lar_msgs/CarControlStamped,"# std_msgs/Header
builtin_interfaces/Time stamp
string frame_id",std_msgs/Header,,"# builtin_interfaces/Time
int32 sec
uint32 nanosec",builtin_interfaces/Time,950615705,1697563552,0.007782596163451672,0.30000001192092896
1697563552956631839,"# lar_msgs/CarControlStamped
std_msgs/Header header
float32 steering
float32 throttle",lar_msgs/CarControlStamped,"# std_msgs/Header
builtin_interfaces/Time stamp
string frame_id",std_msgs/Header,,"# builtin_interfaces/Time
int32 sec
uint32 nanosec",builtin_interfaces/Time,955987284,1697563552,0.008234497159719467,0.30000001192092896
1697563552960480118,"# lar_msgs/CarControlStamped
std_msgs/Header header
float32 steering
float32 throttle",lar_msgs/CarControlStamped,"# std_msgs/Header
builtin_interfaces/Time stamp
string frame_id",std_msgs/Header,,"# builtin_interfaces/Time
int32 sec
uint32 nanosec",builtin_interfaces/Time,960254247,1697563552,0.008910159580409527,0.30000001192092896
1697563552965753142,"# lar_msgs/CarControlStamped
std_msgs/Header header
float32 steering
float32 throttle",lar_msgs/CarControlStamped,"# std_msgs/Header
builtin_interfaces/Time stamp
string frame_id",std_msgs/Header,,"# builtin_interfaces/Time
int32 sec
uint32 nanosec",builtin_interfaces/Time,965358343,1697563552,0.007175259292125702,0.30000001192092896
1697563552970953552,"# lar_msgs/CarControlStamped
std_msgs/Header header
float32 steering
float32 throttle",lar_msgs/CarControlStamped,"# std_msgs/Header
builtin_interfaces/Time stamp
string frame_id",std_msgs/Header,,"# builtin_interfaces/Time
int32 sec
uint32 nanosec",builtin_interfaces/Time,970516493,1697563552,0.0075972117483615875,0.30000001192092896
1697563552975783308,"# lar_msgs/CarControlStamped
std_msgs/Header header
float32 steering
float32 throttle",lar_msgs/CarControlStamped,"# std_msgs/Header
builtin_interfaces/Time stamp
string frame_id",std_msgs/Header,,"# builtin_interfaces/Time
int32 sec
uint32 nanosec",builtin_interfaces/Time,975359503,1697563552,0.00792712438851595,0.30000001192092896
1697563552980921461,"# lar_msgs/CarControlStamped
std_msgs/Header header
float32 steering
float32 throttle",lar_msgs/CarControlStamped,"# std_msgs/Header
builtin_interfaces/Time stamp
string frame_id",std_msgs/Header,,"# builtin_interfaces/Time
int32 sec
uint32 nanosec",builtin_interfaces/Time,980311496,1697563552,0.00842699222266674,0.30000001192092896
1697563552985766206,"# lar_msgs/CarControlStamped
std_msgs/Header header
float32 steering
float32 throttle",lar_msgs/CarControlStamped,"# std_msgs/Header
builtin_interfaces/Time stamp
string frame_id",std_msgs/Header,,"# builtin_interfaces/Time
int32 sec
uint32 nanosec",builtin_interfaces/Time,985383515,1697563552,0.009143508970737457,0.30000001192092896
1697563552990950877,"# lar_msgs/CarControlStamped
std_msgs/Header header
float32 steering
float32 throttle",lar_msgs/CarControlStamped,"# std_msgs/Header
builtin_interfaces/Time stamp
string frame_id",std_msgs/Header,,"# builtin_interfaces/Time
int32 sec
uint32 nanosec",builtin_interfaces/Time,990613405,1697563552,0.007406297139823437,0.30000001192092896
1697563552995870309,"# lar_msgs/CarControlStamped
std_msgs/Header header
float32 steering
float32 throttle",lar_msgs/CarControlStamped,"# std_msgs/Header
builtin_interfaces/Time stamp
string frame_id",std_msgs/Header,,"# builtin_interfaces/Time
int32 sec
uint32 nanosec",builtin_interfaces/Time,995466963,1697563552,0.007851144298911095,0.30000001192092896
1697563553000871428,"# lar_msgs/CarControlStamped
std_msgs/Header header
float32 steering
float32 throttle",lar_msgs/CarControlStamped,"# std_msgs/Header
builtin_interfaces/Time stamp
string frame_id",std_msgs/Header,,"# builtin_interfaces/Time
int32 sec
uint32 nanosec",builtin_interfaces/Time,447459,1697563553,0.008333365432918072,0.30000001192092896
1697563553006114848,"# lar_msgs/CarControlStamped
std_msgs/Header header
float32 steering
float32 throttle",lar_msgs/CarControlStamped,"# std_msgs/Header
builtin_interfaces/Time stamp
string frame_id",std_msgs/Header,,"# builtin_interfaces/Time
int32 sec
uint32 nanosec",builtin_interfaces/Time,5623024,1697563553,0.008706617169082165,0.30000001192092896
1697563553011062670,"# lar_msgs/CarControlStamped
std_msgs/Header header
float32 steering
float32 throttle",lar_msgs/CarControlStamped,"# std_msgs/Header
builtin_interfaces/Time stamp
string frame_id",std_msgs/Header,,"# builtin_interfaces/Time
int32 sec
uint32 nanosec",builtin_interfaces/Time,10397089,1697563553,0.009435644373297691,0.30000001192092896
1697563553016243146,"# lar_msgs/CarControlStamped
std_msgs/Header header
float32 steering
float32 throttle",lar_msgs/CarControlStamped,"# std_msgs/Header
builtin_interfaces/Time stamp
string frame_id",std_msgs/Header,,"# builtin_interfaces/Time
int32 sec
uint32 nanosec",builtin_interfaces/Time,15923455,1697563553,0.007654163055121899,0.30000001192092896
1697563553020898602,"# lar_msgs/CarControlStamped
std_msgs/Header header
float32 steering
float32 throttle",lar_msgs/CarControlStamped,"# std_msgs/Header
builtin_interfaces/Time stamp
string frame_id",std_msgs/Header,,"# builtin_interfaces/Time
int32 sec
uint32 nanosec",builtin_interfaces/Time,20562084,1697563553,0.008084182627499104,0.30000001192092896
1697563553026253747,"# lar_msgs/CarControlStamped
std_msgs/Header header
float32 steering
float32 throttle",lar_msgs/CarControlStamped,"# std_msgs/Header
builtin_interfaces/Time stamp
string frame_id",std_msgs/Header,,"# builtin_interfaces/Time
int32 sec
uint32 nanosec",builtin_interfaces/Time,25535059,1697563553,0.008512630127370358,0.30000001192092896
1697563553030658914,"# lar_msgs/CarControlStamped
std_msgs/Header header
float32 steering
float32 throttle",lar_msgs/CarControlStamped,"# std_msgs/Header
builtin_interfaces/Time stamp
string frame_id",std_msgs/Header,,"# builtin_interfaces/Time
int32 sec
uint32 nanosec",builtin_interfaces/Time,30359468,1697563553,0.008799017407000065,0.30000001192092896
1697563553035675794,"# lar_msgs/CarControlStamped
std_msgs/Header header
float32 steering
float32 throttle",lar_msgs/CarControlStamped,"# std_msgs/Header
builtin_interfaces/Time stamp
string frame_id",std_msgs/Header,,"# builtin_interfaces/Time
int32 sec
uint32 nanosec",builtin_interfaces/Time,35351502,1697563553,0.009249253198504448,0.30000001192092896
1697563553040790767,"# lar_msgs/CarControlStamped
std_msgs/Header header
float32 steering
float32 throttle",lar_msgs/CarControlStamped,"# std_msgs/Header
builtin_interfaces/Time stamp
string frame_id",std_msgs/Header,,"# builtin_interfaces/Time
int32 sec
uint32 nanosec",builtin_interfaces/Time,40427656,1697563553,0.007389768026769161,0.30000001192092896
1697563553045737111,"# lar_msgs/CarControlStamped
std_msgs/Header header
float32 steering
float32 throttle",lar_msgs/CarControlStamped,"# std_msgs/Header
builtin_interfaces/Time stamp
string frame_id",std_msgs/Header,,"# builtin_interfaces/Time
int32 sec
uint32 nanosec",builtin_interfaces/Time,45416434,1697563553,0.0077168201096355915,0.30000001192092896
1697563553050677534,"# lar_msgs/CarControlStamped
std_msgs/Header header
float32 steering
float32 throttle",lar_msgs/CarControlStamped,"# std_msgs/Header
builtin_interfaces/Time stamp
string frame_id",std_msgs/Header,,"# builtin_interfaces/Time
int32 sec
uint32 nanosec",builtin_interfaces/Time,50376325,1697563553,0.00811049435287714,0.30000001192092896
1697563553055924595,"# lar_msgs/CarControlStamped
std_msgs/Header header
float32 steering
float32 throttle",lar_msgs/CarControlStamped,"# std_msgs/Header
builtin_interfaces/Time stamp
string frame_id",std_msgs/Header,,"# builtin_interfaces/Time
int32 sec
uint32 nanosec",builtin_interfaces/Time,55442818,1697563553,0.008418614976108074,0.30000001192092896
1697563553060673456,"# lar_msgs/CarControlStamped
std_msgs/Header header
float32 steering
float32 throttle",lar_msgs/CarControlStamped,"# std_msgs/Header
builtin_interfaces/Time stamp
string frame_id",std_msgs/Header,,"# builtin_interfaces/Time
int32 sec
uint32 nanosec",builtin_interfaces/Time,60373983,1697563553,0.009088260121643543,0.30000001192092896
1697563553065903210,"# lar_msgs/CarControlStamped
std_msgs/Header header
float32 steering
float32 throttle",lar_msgs/CarControlStamped,"# std_msgs/Header
builtin_interfaces/Time stamp
string frame_id",std_msgs/Header,,"# builtin_interfaces/Time
int32 sec
uint32 nanosec",builtin_interfaces/Time,65542166,1697563553,0.007324659265577793,0.30000001192092896
1697563553070822414,"# lar_msgs/CarControlStamped
std_msgs/Header header
float32 steering
float32 throttle",lar_msgs/CarControlStamped,"# std_msgs/Header
builtin_interfaces/Time stamp
string frame_id",std_msgs/Header,,"# builtin_interfaces/Time
int32 sec
uint32 nanosec",builtin_interfaces/Time,70461968,1697563553,0.0077447425574064255,0.30000001192092896
1697563553076150939,"# lar_msgs/CarControlStamped
std_msgs/Header header
float32 steering
float32 throttle",lar_msgs/CarControlStamped,"# std_msgs/Header
builtin_interfaces/Time stamp
string frame_id",std_msgs/Header,,"# builtin_interfaces/Time
int32 sec
uint32 nanosec",builtin_interfaces/Time,75575034,1697563553,0.008210522122681141,0.30000001192092896
1697563553080887784,"# lar_msgs/CarControlStamped
std_msgs/Header header
float32 steering
float32 throttle",lar_msgs/CarControlStamped,"# std_msgs/Header
builtin_interfaces/Time stamp
string frame_id",std_msgs/Header,,"# builtin_interfaces/Time
int32 sec
uint32 nanosec",builtin_interfaces/Time,80565681,1697563553,0.008573893457651138,0.30000001192092896
1697563553086412481,"# lar_msgs/CarControlStamped
std_msgs/Header header
float32 steering
float32 throttle",lar_msgs/CarControlStamped,"# std_msgs/Header
builtin_interfaces/Time stamp
string frame_id",std_msgs/Header,,"# builtin_interfaces/Time
int32 sec
uint32 nanosec",builtin_interfaces/Time,85891378,1697563553,0.008965170942246914,0.30000001192092896
1697563553090871344,"# lar_msgs/CarControlStamped
std_msgs/Header header
float32 steering
float32 throttle",lar_msgs/CarControlStamped,"# std_msgs/Header
builtin_interfaces/Time stamp
string frame_id",std_msgs/Header,,"# builtin_interfaces/Time
int32 sec
uint32 nanosec",builtin_interfaces/Time,90389794,1697563553,0.0075194453820586205,0.30000001192092896
1697563553095829146,"# lar_msgs/CarControlStamped
std_msgs/Header header
float32 steering
float32 throttle",lar_msgs/CarControlStamped,"# std_msgs/Header
builtin_interfaces/Time stamp
string frame_id",std_msgs/Header,,"# builtin_interfaces/Time
int32 sec
uint32 nanosec",builtin_interfaces/Time,95383792,1697563553,0.00796815287321806,0.30000001192092896
1697563553100646283,"# lar_msgs/CarControlStamped
std_msgs/Header header
float32 steering
float32 throttle",lar_msgs/CarControlStamped,"# std_msgs/Header
builtin_interfaces/Time stamp
string frame_id",std_msgs/Header,,"# builtin_interfaces/Time
int32 sec
uint32 nanosec",builtin_interfaces/Time,100351320,1697563553,0.008314023725688457,0.30000001192092896
1697563553105634154,"# lar_msgs/CarControlStamped
std_msgs/Header header
float32 steering
float32 throttle",lar_msgs/CarControlStamped,"# std_msgs/Header
builtin_interfaces/Time stamp
string frame_id",std_msgs/Header,,"# builtin_interfaces/Time
int32 sec
uint32 nanosec",builtin_interfaces/Time,105392972,1697563553,0.009148824959993362,0.30000001192092896
1697563553110788619,"# lar_msgs/CarControlStamped
std_msgs/Header header
float32 steering
float32 throttle",lar_msgs/CarControlStamped,"# std_msgs/Header
builtin_interfaces/Time stamp
string frame_id",std_msgs/Header,,"# builtin_interfaces/Time
int32 sec
uint32 nanosec",builtin_interfaces/Time,110470400,1697563553,0.007553938776254654,0.30000001192092896
1697563553115963241,"# lar_msgs/CarControlStamped
std_msgs/Header header
float32 steering
float32 throttle",lar_msgs/CarControlStamped,"# std_msgs/Header
builtin_interfaces/Time stamp
string frame_id",std_msgs/Header,,"# builtin_interfaces/Time
int32 sec
uint32 nanosec",builtin_interfaces/Time,115591068,1697563553,0.007994703017175198,0.30000001192092896
1697563553120909167,"# lar_msgs/CarControlStamped
std_msgs/Header header
float32 steering
float32 throttle",lar_msgs/CarControlStamped,"# std_msgs/Header
builtin_interfaces/Time stamp
string frame_id",std_msgs/Header,,"# builtin_interfaces/Time
int32 sec
uint32 nanosec",builtin_interfaces/Time,120323050,1697563553,0.008330765180289745,0.30000001192092896
1697563553125896198,"# lar_msgs/CarControlStamped
std_msgs/Header header
float32 steering
float32 throttle",lar_msgs/CarControlStamped,"# std_msgs/Header
builtin_interfaces/Time stamp
string frame_id",std_msgs/Header,,"# builtin_interfaces/Time
int32 sec
uint32 nanosec",builtin_interfaces/Time,125640102,1697563553,0.008829114958643913,0.30000001192092896
1697563553130843752,"# lar_msgs/CarControlStamped
std_msgs/Header header
float32 steering
float32 throttle",lar_msgs/CarControlStamped,"# std_msgs/Header
builtin_interfaces/Time stamp
string frame_id",std_msgs/Header,,"# builtin_interfaces/Time
int32 sec
uint32 nanosec",builtin_interfaces/Time,130516862,1697563553,0.009369488805532455,0.30000001192092896
1697563553136498947,"# lar_msgs/CarControlStamped
std_msgs/Header header
float32 steering
float32 throttle",lar_msgs/CarControlStamped,"# std_msgs/Header
builtin_interfaces/Time stamp
string frame_id",std_msgs/Header,,"# builtin_interfaces/Time
int32 sec
uint32 nanosec",builtin_interfaces/Time,136163802,1697563553,0.007585775572806597,0.30000001192092896
1697563553140796518,"# lar_msgs/CarControlStamped
std_msgs/Header header
float32 steering
float32 throttle",lar_msgs/CarControlStamped,"# std_msgs/Header
builtin_interfaces/Time stamp
string frame_id",std_msgs/Header,,"# builtin_interfaces/Time
int32 sec
uint32 nanosec",builtin_interfaces/Time,140367872,1697563553,0.007999331690371037,0.30000001192092896
1697563553146122759,"# lar_msgs/CarControlStamped
std_msgs/Header header
float32 steering
float32 throttle",lar_msgs/CarControlStamped,"# std_msgs/Header
builtin_interfaces/Time stamp
string frame_id",std_msgs/Header,,"# builtin_interfaces/Time
int32 sec
uint32 nanosec",builtin_interfaces/Time,145723738,1697563553,0.008449387736618519,0.30000001192092896
1697563553151599221,"# lar_msgs/CarControlStamped
std_msgs/Header header
float32 steering
float32 throttle",lar_msgs/CarControlStamped,"# std_msgs/Header
builtin_interfaces/Time stamp
string frame_id",std_msgs/Header,,"# builtin_interfaces/Time
int32 sec
uint32 nanosec",builtin_interfaces/Time,150616009,1697563553,0.009261270985007286,0.30000001192092896
1697563553156773642,"# lar_msgs/CarControlStamped
std_msgs/Header header
float32 steering
float32 throttle",lar_msgs/CarControlStamped,"# std_msgs/Header
builtin_interfaces/Time stamp
string frame_id",std_msgs/Header,,"# builtin_interfaces/Time
int32 sec
uint32 nanosec",builtin_interfaces/Time,155832711,1697563553,0.007614544127136469,0.30000001192092896
1697563553160677216,"# lar_msgs/CarControlStamped
std_msgs/Header header
float32 steering
float32 throttle",lar_msgs/CarControlStamped,"# std_msgs/Header
builtin_interfaces/Time stamp
string frame_id",std_msgs/Header,,"# builtin_interfaces/Time
int32 sec
uint32 nanosec",builtin_interfaces/Time,160342826,1697563553,0.00789808202534914,0.30000001192092896
1697563553165876509,"# lar_msgs/CarControlStamped
std_msgs/Header header
float32 steering
float32 throttle",lar_msgs/CarControlStamped,"# std_msgs/Header
builtin_interfaces/Time stamp
string frame_id",std_msgs/Header,,"# builtin_interfaces/Time
int32 sec
uint32 nanosec",builtin_interfaces/Time,165564663,1697563553,0.008337321691215038,0.30000001192092896
1697563553170901583,"# lar_msgs/CarControlStamped
std_msgs/Header header
float32 steering
float32 throttle",lar_msgs/CarControlStamped,"# std_msgs/Header
builtin_interfaces/Time stamp
string frame_id",std_msgs/Header,,"# builtin_interfaces/Time
int32 sec
uint32 nanosec",builtin_interfaces/Time,170398945,1697563553,0.009129812009632587,0.30000001192092896
1697563553175849528,"# lar_msgs/CarControlStamped
std_msgs/Header header
float32 steering
float32 throttle",lar_msgs/CarControlStamped,"# std_msgs/Header
builtin_interfaces/Time stamp
string frame_id",std_msgs/Header,,"# builtin_interfaces/Time
int32 sec
uint32 nanosec",builtin_interfaces/Time,175406880,1697563553,0.00749640678986907,0.30000001192092896
1697563553181341793,"# lar_msgs/CarControlStamped
std_msgs/Header header
float32 steering
float32 throttle",lar_msgs/CarControlStamped,"# std_msgs/Header
builtin_interfaces/Time stamp
string frame_id",std_msgs/Header,,"# builtin_interfaces/Time
int32 sec
uint32 nanosec",builtin_interfaces/Time,180629085,1697563553,0.007886627689003944,0.30000001192092896
1697563553185629498,"# lar_msgs/CarControlStamped
std_msgs/Header header
float32 steering
float32 throttle",lar_msgs/CarControlStamped,"# std_msgs/Header
builtin_interfaces/Time stamp
string frame_id",std_msgs/Header,,"# builtin_interfaces/Time
int32 sec
uint32 nanosec",builtin_interfaces/Time,185329906,1697563553,0.008171255700290203,0.30000001192092896
1697563553190783339,"# lar_msgs/CarControlStamped
std_msgs/Header header
float32 steering
float32 throttle",lar_msgs/CarControlStamped,"# std_msgs/Header
builtin_interfaces/Time stamp
string frame_id",std_msgs/Header,,"# builtin_interfaces/Time
int32 sec
uint32 nanosec",builtin_interfaces/Time,190478716,1697563553,0.008620440028607845,0.30000001192092896
1697563553195693502,"# lar_msgs/CarControlStamped
std_msgs/Header header
float32 steering
float32 throttle",lar_msgs/CarControlStamped,"# std_msgs/Header
builtin_interfaces/Time stamp
string frame_id",std_msgs/Header,,"# builtin_interfaces/Time
int32 sec
uint32 nanosec",builtin_interfaces/Time,195387858,1697563553,0.008947420865297318,0.30000001192092896
1697563553201091634,"# lar_msgs/CarControlStamped
std_msgs/Header header
float32 steering
float32 throttle",lar_msgs/CarControlStamped,"# std_msgs/Header
builtin_interfaces/Time stamp
string frame_id",std_msgs/Header,,"# builtin_interfaces/Time
int32 sec
uint32 nanosec",builtin_interfaces/Time,200524907,1697563553,0.007309062406420708,0.30000001192092896
1697563553205825695,"# lar_msgs/CarControlStamped
std_msgs/Header header
float32 steering
float32 throttle",lar_msgs/CarControlStamped,"# std_msgs/Header
builtin_interfaces/Time stamp
string frame_id",std_msgs/Header,,"# builtin_interfaces/Time
int32 sec
uint32 nanosec",builtin_interfaces/Time,205513191,1697563553,0.007669541984796524,0.30000001192092896
1697563553210963847,"# lar_msgs/CarControlStamped
std_msgs/Header header
float32 steering
float32 throttle",lar_msgs/CarControlStamped,"# std_msgs/Header
builtin_interfaces/Time stamp
string frame_id",std_msgs/Header,,"# builtin_interfaces/Time
int32 sec
uint32 nanosec",builtin_interfaces/Time,210574215,1697563553,0.007924165576696396,0.30000001192092896
1697563553215974881,"# lar_msgs/CarControlStamped
std_msgs/Header header
float32 steering
float32 throttle",lar_msgs/CarControlStamped,"# std_msgs/Header
builtin_interfaces/Time stamp
string frame_id",std_msgs/Header,,"# builtin_interfaces/Time
int32 sec
uint32 nanosec",builtin_interfaces/Time,215362193,1697563553,0.008799542672932148,0.30000001192092896
1697563553220839033,"# lar_msgs/CarControlStamped
std_msgs/Header header
float32 steering
float32 throttle",lar_msgs/CarControlStamped,"# std_msgs/Header
builtin_interfaces/Time stamp
string frame_id",std_msgs/Header,,"# builtin_interfaces/Time
int32 sec
uint32 nanosec",builtin_interfaces/Time,220359269,1697563553,0.00702759949490428,0.30000001192092896
1697563553225726673,"# lar_msgs/CarControlStamped
std_msgs/Header header
float32 steering
float32 throttle",lar_msgs/CarControlStamped,"# std_msgs/Header
builtin_interfaces/Time stamp
string frame_id",std_msgs/Header,,"# builtin_interfaces/Time
int32 sec
uint32 nanosec",builtin_interfaces/Time,225407223,1697563553,0.007359230890870094,0.30000001192092896
1697563553231010253,"# lar_msgs/CarControlStamped
std_msgs/Header header
float32 steering
float32 throttle",lar_msgs/CarControlStamped,"# std_msgs/Header
builtin_interfaces/Time stamp
string frame_id",std_msgs/Header,,"# builtin_interfaces/Time
int32 sec
uint32 nanosec",builtin_interfaces/Time,230693408,1697563553,0.007719008717685938,0.30000001192092896
1697563553236190024,"# lar_msgs/CarControlStamped
std_msgs/Header header
float32 steering
float32 throttle",lar_msgs/CarControlStamped,"# std_msgs/Header
builtin_interfaces/Time stamp
string frame_id",std_msgs/Header,,"# builtin_interfaces/Time
int32 sec
uint32 nanosec",builtin_interfaces/Time,235663734,1697563553,0.008413166739046574,0.30000001192092896
1697563553240655405,"# lar_msgs/CarControlStamped
std_msgs/Header header
float32 steering
float32 throttle",lar_msgs/CarControlStamped,"# std_msgs/Header
builtin_interfaces/Time stamp
string frame_id",std_msgs/Header,,"# builtin_interfaces/Time
int32 sec
uint32 nanosec",builtin_interfaces/Time,240333274,1697563553,0.006790367886424065,0.30000001192092896
1697563553245979078,"# lar_msgs/CarControlStamped
std_msgs/Header header
float32 steering
float32 throttle",lar_msgs/CarControlStamped,"# std_msgs/Header
builtin_interfaces/Time stamp
string frame_id",std_msgs/Header,,"# builtin_interfaces/Time
int32 sec
uint32 nanosec",builtin_interfaces/Time,245590505,1697563553,0.00700190057978034,0.30000001192092896
1697563553250640672,"# lar_msgs/CarControlStamped
std_msgs/Header header
float32 steering
float32 throttle",lar_msgs/CarControlStamped,"# std_msgs/Header
builtin_interfaces/Time stamp
string frame_id",std_msgs/Header,,"# builtin_interfaces/Time
int32 sec
uint32 nanosec",builtin_interfaces/Time,250332744,1697563553,0.00739290239289403,0.30000001192092896
1697563553256073235,"# lar_msgs/CarControlStamped
std_msgs/Header header
float32 steering
float32 throttle",lar_msgs/CarControlStamped,"# std_msgs/Header
builtin_interfaces/Time stamp
string frame_id",std_msgs/Header,,"# builtin_interfaces/Time
int32 sec
uint32 nanosec",builtin_interfaces/Time,255606615,1697563553,0.008142208680510521,0.30000001192092896
1697563553260881055,"# lar_msgs/CarControlStamped
std_msgs/Header header
float32 steering
float32 throttle",lar_msgs/CarControlStamped,"# std_msgs/Header
builtin_interfaces/Time stamp
string frame_id",std_msgs/Header,,"# builtin_interfaces/Time
int32 sec
uint32 nanosec",builtin_interfaces/Time,260543935,1697563553,0.006653242744505405,0.30000001192092896
1697563553266091371,"# lar_msgs/CarControlStamped
std_msgs/Header header
float32 steering
float32 throttle",lar_msgs/CarControlStamped,"# std_msgs/Header
builtin_interfaces/Time stamp
string frame_id",std_msgs/Header,,"# builtin_interfaces/Time
int32 sec
uint32 nanosec",builtin_interfaces/Time,265674953,1697563553,0.007070367690175772,0.30000001192092896
1697563553270833274,"# lar_msgs/CarControlStamped
std_msgs/Header header
float32 steering
float32 throttle",lar_msgs/CarControlStamped,"# std_msgs/Header
builtin_interfaces/Time stamp
string frame_id",std_msgs/Header,,"# builtin_interfaces/Time
int32 sec
uint32 nanosec",builtin_interfaces/Time,270515075,1697563553,0.0075319427996873856,0.30000001192092896
1697563553276510696,"# lar_msgs/CarControlStamped
std_msgs/Header header
float32 steering
float32 throttle",lar_msgs/CarControlStamped,"# std_msgs/Header
builtin_interfaces/Time stamp
string frame_id",std_msgs/Header,,"# builtin_interfaces/Time
int32 sec
uint32 nanosec",builtin_interfaces/Time,275685714,1697563553,0.008185474202036858,0.30000001192092896
1697563553281132369,"# lar_msgs/CarControlStamped
std_msgs/Header header
float32 steering
float32 throttle",lar_msgs/CarControlStamped,"# std_msgs/Header
builtin_interfaces/Time stamp
string frame_id",std_msgs/Header,,"# builtin_interfaces/Time
int32 sec
uint32 nanosec",builtin_interfaces/Time,280675187,1697563553,0.006728318519890308,0.30000001192092896
1697563553286440863,"# lar_msgs/CarControlStamped
std_msgs/Header header
float32 steering
float32 throttle",lar_msgs/CarControlStamped,"# std_msgs/Header
builtin_interfaces/Time stamp
string frame_id",std_msgs/Header,,"# builtin_interfaces/Time
int32 sec
uint32 nanosec",builtin_interfaces/Time,285948965,1697563553,0.007154400926083326,0.30000001192092896
1697563553290731965,"# lar_msgs/CarControlStamped
std_msgs/Header header
float32 steering
float32 throttle",lar_msgs/CarControlStamped,"# std_msgs/Header
builtin_interfaces/Time stamp
string frame_id",std_msgs/Header,,"# builtin_interfaces/Time
int32 sec
uint32 nanosec",builtin_interfaces/Time,290363325,1697563553,0.007619443349540234,0.30000001192092896
1697563553295732097,"# lar_msgs/CarControlStamped
std_msgs/Header header
float32 steering
float32 throttle",lar_msgs/CarControlStamped,"# std_msgs/Header
builtin_interfaces/Time stamp
string frame_id",std_msgs/Header,,"# builtin_interfaces/Time
int32 sec
uint32 nanosec",builtin_interfaces/Time,295423790,1697563553,0.008270124904811382,0.30000001192092896
1697563553301073382,"# lar_msgs/CarControlStamped
std_msgs/Header header
float32 steering
float32 throttle",lar_msgs/CarControlStamped,"# std_msgs/Header
builtin_interfaces/Time stamp
string frame_id",std_msgs/Header,,"# builtin_interfaces/Time
int32 sec
uint32 nanosec",builtin_interfaces/Time,300476253,1697563553,0.006916286889463663,0.30000001192092896
1697563553306220000,"# lar_msgs/CarControlStamped
std_msgs/Header header
float32 steering
float32 throttle",lar_msgs/CarControlStamped,"# std_msgs/Header
builtin_interfaces/Time stamp
string frame_id",std_msgs/Header,,"# builtin_interfaces/Time
int32 sec
uint32 nanosec",builtin_interfaces/Time,305687034,1697563553,0.007332677952945232,0.30000001192092896
1697563553310632331,"# lar_msgs/CarControlStamped
std_msgs/Header header
float32 steering
float32 throttle",lar_msgs/CarControlStamped,"# std_msgs/Header
builtin_interfaces/Time stamp
